company_id,ticker,company_name,industry,address,min_market_cap,max_market_cap,mean_market_cap,median_market_cap,var_market_cap,stdev_market_cap,sem_market_cap,longitude,latitude
0,AE,"Adams Resources & Energy, Inc.",Oil & Gas Refining & Marketing,"17 South Briar Hollow Lane, Houston, TX, 77027, United States",64167005.49967766,172773060.086174,119597617.21358727,118073421.87210083,516150251960415.3,22718940.37934902,871872.9116225766,-95.44930570343318,29.751084706239656
1,AM,Antero Midstream Corporation,Oil & Gas Midstream,"1615 Wynkoop Street, Denver, CO, 80202, United States",709145692.3390503,5623110446.081177,3641779551.7184,4125810771.032715,1.7422519331757373e+18,1319943912.8901415,50654798.30019257,-105.001,39.7521367
2,AMPY,Amplify Energy Corp.,Oil & Gas E&P,"500 Dallas Street, Houston, TX, 77002, United States",19534111.283493042,371006339.6965027,131979482.01055135,125322448.18913937,7157645462753969.0,84602869.1165611,3246760.1303856913,-95.37057390101832,29.757651850000002
3,AMTX,"Aemetis, Inc.",Oil & Gas Refining & Marketing,"20400 Stevens Creek Boulevard, Cupertino, CA, 95014, United States",7631915.033245087,727294309.4781876,247721001.65918395,270573009.8733902,4.074989893603038e+16,201866042.05767345,7746907.686175832,-122.0303889,37.3216258
4,APA,APA Corporation,Oil & Gas E&P,"One Post Oak Central, Houston, TX, 77056-4400, United States",1489941315.4964447,17381742273.55957,8333713742.310855,7747044563.989746,1.2850653649341479e+19,3584780837.0026584,137571262.29035357,-95.23402800634517,29.631256
5,AR,Antero Resources Corporation,Oil & Gas E&P,"1615 Wynkoop Street, Denver, CO, 80202, United States",192073589.42443848,15028516390.730225,4416217596.825578,3270923470.3546143,1.5146893109691329e+19,3891900963.4998846,149357451.01376897,-105.001,39.7521367
6,AROC,"Archrock, Inc.",Oil & Gas Equipment & Services,"9807 Katy Freeway, Houston, TX, 77024, United States",285483840.4445648,1597162426.3990173,1148244064.9968557,1223212027.9312134,6.808744398687527e+16,260935708.5315754,10013793.431603853,-95.53543293871383,29.7837563129569
7,BATL,Battalion Oil Corporation,Oil & Gas E&P,"820 Gessner Road, Houston, TX, 77024, United States",178242900.0,259262400.0,211545618.06843075,210650700.0,649937425388552.9,25493870.349332068,4309250.599047034,-95.54435713215348,29.776215699843615
8,BKR,Baker Hughes Company,Oil & Gas Equipment & Services,"575 North Dairy Ashford Road, Houston, TX, 77079-1121, United States",8951486722.305054,41242585490.94141,22107430012.64648,21444258871.159424,5.0139846282288456e+19,7080949532.533646,271741902.6987003,-95.60613277294914,29.76779716930402
9,BOOM,DMC Global Inc.,Oil & Gas Equipment & Services,"11800 Ridge Parkway, Broomfield, CO, 80021, United States",317604111.12918854,1153278911.8572235,636776284.527446,624567506.6642761,4.172109180304164e+16,204257415.53990552,7838680.177582421,-105.152734,39.910782
10,BORR,Borr Drilling Limited,Oil & Gas Drilling,"S. E. Pearman Building, Hamilton, HM11, Bermuda",44235184.18833017,1991224295.0134277,493878643.52898943,453760441.5793419,8.693344693909922e+16,294844784.4868537,11315104.332988724,-64.7878619302714,32.2951713
11,BP,BP p.l.c.,Oil & Gas Integrated,"1 St James's Square, London, SW1Y 4PD, United Kingdom",46169566790.38452,118345836107.10059,83823189916.37892,84657855553.1543,2.381239265312994e+20,15431264579.784101,592197582.9217885,-0.13457,51.50773
12,BPT,BP Prudhoe Bay Royalty Trust,Oil & Gas Midstream,"601 Travis Street, Houston, TX, 77002, United States",23863433.933258057,531361998.3673096,134849305.567803,79145275.7358551,1.4535777722504352e+16,120564413.1678347,4626837.528138246,-95.363417,29.760353
13,BRN,"Barnwell Industries, Inc.",Oil & Gas E&P,"1100 Alakea Street, Honolulu, HI, 96813-2840, United States",2648691.140797138,47676443.49449158,18278514.800169043,22479458.080911636,87084667531568.45,9331916.605476523,358126.09065304586,-157.859519,21.308929
14,BROG,Brooge Energy Limited,Oil & Gas Midstream,"Opus Tower A, 1002, Dubai, United Arab Emirates",224943589.7846222,1423548094.9172974,834354609.7516477,913963936.7218018,9.982151237178328e+16,315945426.25552166,12124872.643868035,55.28363351979266,25.21754675
15,BRY,Berry Corporation,Oil & Gas E&P,"16000 North Dallas Parkway, Dallas, TX, 75248, United States",149308666.61310196,999802668.7621918,520514279.0049416,496015265.4776573,4.2504301293671576e+16,206165713.1864355,7911913.919893531,-96.820056,32.966465
16,BSM,"Black Stone Minerals, L.P.",Oil & Gas E&P,"1001 Fannin Street, Houston, TX, 77002, United States",741544848.2723236,3607996364.1433716,2045570785.9586377,2051269746.831894,5.3047353084699904e+17,728336138.6386089,27950975.67191136,-95.3637637,29.7554638
17,BTE,Baytex Energy Corp.,Oil & Gas E&P,"Centennial Place, East Tower, Calgary, AB, T2P 0R3, Canada",113194619.82589626,4266315591.977783,1254287717.2767904,842431819.2534714,1.1464108610514323e+18,1070705777.070168,41089916.50833452,-114.07215306795796,51.0508005
18,CAPL,CrossAmerica Partners LP,Oil & Gas Refining & Marketing,"645 Hamilton Street, Allentown, PA, 18101, United States",210467105.99884987,877306275.5435944,632008070.8617421,671033573.8067627,2.173950165524397e+16,147443215.01935574,5658351.271292996,-75.471298,40.602614
19,CEI,"Camber Energy, Inc.",Oil & Gas E&P,"12 Greenway Plaza, Houston, TX, 77046, United States",401280620.0,485527380.0,443404000.0,443404000.0,3548758285248800.0,59571455.28899559,42123380.0,-95.435657,29.733103
20,CHRD,Chord Energy Corporation,Oil & Gas E&P,"1001 Fannin Street, Houston, TX, 77002, United States",3805731.151226163,7534924624.237061,2929118441.266092,3278425775.3814697,5.713938384392946e+18,2390384568.305474,91734540.37322001,-95.3637637,29.7554638
21,CHX,ChampionX Corporation,Oil & Gas Equipment & Services,"Building 4, The Woodlands, TX, 77381, United States",234065992.4417038,6164179903.381348,3502928455.8312855,4180828407.9170227,2.2870180553646392e+18,1512289011.85079,58036325.724754564,-95.468691,30.167813
22,CIVI,"Civitas Resources, Inc.",Oil & Gas E&P,"555 17th Street, Denver, CO, 80202, United States",282380883.2273483,7116028460.0,2103057097.618038,1125820209.872818,3.7777832550400563e+18,1943652040.6286862,74590519.43216784,-104.98951925002633,39.74552335
23,CKX,"CKX Lands, Inc.",Oil & Gas E&P,"2417 Shell Beach Drive, Lake Charles, LA, 70601, United States",14568750.0,27194860.0,20648547.707750935,21755999.629497528,8193493569007.772,2862427.9150762507,109849.901401906,-93.24495333747956,30.21734383272148
24,CLB,Core Laboratories Inc.,Oil & Gas Equipment & Services,"6316 Windfern Road, Houston, TX, 77040, United States",353913365.5544281,2234634680.6785583,1184056835.7694006,1211393502.3284912,1.3147763099428107e+17,362598443.17685795,13915251.11311021,-95.53723951515151,29.864028232323232
25,CLMT,"Calumet Specialty Products Partners, L.P.",Oil & Gas E&P,"2780 Waterfront Parkway East Drive, Indianapolis, IN, 46214, United States",73161794.05443478,1418369726.358673,590536906.4521271,473415206.5000534,1.5326726190338845e+17,391493629.454412,15024146.588472577,-86.27862342365756,39.8055696
26,CLNE,Clean Energy Fuels Corp.,Oil & Gas Refining & Marketing,"4675 MacArthur Court, Newport Beach, CA, 92660, United States",222030728.82270813,3695752678.9855957,1321111681.4369204,1389838244.255066,5.4268060009314854e+17,736668582.262844,28270745.50986542,-117.86206160325384,33.669773250000006
27,CNQ,Canadian Natural Resources Limited,Oil & Gas E&P,"2100, 855 - 2nd Street S.W., Calgary, AB, T2P 4J8, Canada",8090193559.919556,78720648338.63672,38743197047.676384,35604325453.51758,3.3254067775721977e+20,18235697896.083378,699821855.8898952,-114.068189,51.045108
28,CNX,CNX Resources Corporation,Oil & Gas E&P,"CNX Center, Canonsburg, PA, 15317-6506, United States",940791119.2417145,4596904180.480957,2685340819.6788697,2871570527.510742,6.508695853896145e+17,806764888.5453645,30960794.85336746,-80.186732,40.2588431
29,COP,ConocoPhillips,Oil & Gas E&P,"925 North Eldridge Parkway, Houston, TX, 77079-2703, United States",22838316209.30664,158719246352.45117,76853165148.811,73162235561.63672,1.2272880716128812e+21,35032671488.38183,1344430540.442657,-95.61780117072901,29.78335183700673
30,CPG,Crescent Point Energy Corp.,Oil & Gas E&P,"585 –8th Avenue SW, Calgary, AB, T2P 1G1, Canada",309383408.033371,6144534066.181641,2299564699.195435,2122777052.0311432,1.8091759333704689e+18,1345056107.8893583,51618515.89465849,-114.0736319,51.0456489
31,CQP,"Cheniere Energy Partners, L.P.",Oil & Gas Midstream,"845 Texas Avenue, Houston, TX, 77002, United States",7861636071.598389,28463342829.51355,19067260538.271782,19047515925.737305,1.6714891451887786e+19,4088384944.191017,156897814.14127162,-95.36382053061224,29.760840224489797
32,CRK,"Comstock Resources, Inc.",Oil & Gas E&P,"Comstock Tower, Frisco, TX, 75034, United States",790420737.7275391,5008383921.425537,1851950891.1916025,1396790211.2746582,9.832022503607578e+17,991565555.2512692,38052793.54082064,-96.84545895012502,33.129631
33,CRT,Cross Timbers Royalty Trust,Oil & Gas E&P,"3838 Oak Lawn Avenue, Dallas, TX, 75219-4518, United States",21408569.81277466,149040000.91552734,61737346.265925355,54910268.783569336,752622936640656.9,27433974.13136961,1052819.2998401201,-96.80220612023541,32.81527176010682
34,CTRA,Coterra Energy Inc.,Oil & Gas E&P,"Three Memorial City Plaza, Houston, TX, 77024, United States",245208293.75038147,29097618752.944336,7473582574.7625675,347134831.23779297,9.971560858122065e+19,9985770304.849829,383218692.64631414,-95.542974,29.776933
35,CVE,Cenovus Energy Inc.,Oil & Gas Integrated,"4100, 225 – 6 Avenue SW, Calgary, AB, T2P 0M5, Canada",1954749082.8201294,48966817576.456055,18026081012.754566,15841368753.171936,1.4347247826124107e+20,11977999760.44586,459673442.166659,-114.073143,51.047992
36,CVI,"CVR Energy, Inc.",Oil & Gas Refining & Marketing,"2277 Plaza Drive, Sugar Land, TX, 77479, United States",901835528.911972,4329870139.320374,2050793094.9574904,1824637611.650467,5.42443832468272e+17,736507863.1408303,28264577.67604381,-95.62109889139953,29.595424933397606
37,CVX,Chevron Corporation,Oil & Gas Integrated,"6001 Bollinger Canyon Road, San Ramon, CA, 94583-2324, United States",91737766099.88672,355886041995.71875,206046743459.17337,190311756563.82422,3.999371220758332e+21,63240582071.62812,2426950795.364376,-121.95945809117993,37.7583351
38,DHT,"DHT Holdings, Inc.",Oil & Gas Midstream,"Clarendon House, Hamilton, HM 11, Bermuda",590640722.9444275,1410074226.3277588,929086910.758391,929845651.9264526,2.1825318552735292e+16,147733945.1606681,5669508.470113454,-64.78782307991453,32.293574899999996
39,DINO,HF Sinclair Corporation,Oil & Gas Refining & Marketing,"2828 North Harwood, Dallas, TX, 75201, United States",25655297.01839447,13109084126.213074,2204271996.7621703,51578612.69119263,1.4996164686935402e+19,3872488177.7657375,148612456.67256626,-96.8082694,32.7941763
40,DK,"Delek US Holdings, Inc.",Oil & Gas Refining & Marketing,"310 Seven Springs Way, Brentwood, TN, 37027, United States",628483623.7792969,2544516438.831711,1460358552.3123357,1371310576.0,1.5129708195799315e+17,388969255.8004979,14927270.018927017,-86.768987,36.042355
41,DKL,"Delek Logistics Partners, LP",Oil & Gas Refining & Marketing,"310 Seven Springs Way, Brentwood, TN, 37027, United States",126839936.53812408,2731702558.729553,1461583084.8573754,1642816450.2685547,3.988746472054728e+17,631565235.9063731,24237249.269328255,-86.768987,36.042355
42,DLNG,Dynagas LNG Partners LP,Oil & Gas Midstream,"Poseidonos Avenue and Foivis 2 Street, Athens, Greece",35844899.661540985,161561653.0863762,102154758.11679819,107075781.15820885,592673043045030.8,24344877.141711574,934270.6377244429,23.73604,37.98888
43,DMLP,"Dorchester Minerals, L.P.",Oil & Gas E&P,"3838 Oak Lawn Avenue, Dallas, TX, 75219-4541, United States",264296584.882164,1211142300.0,595150632.9466574,512660866.627121,6.3626302830370936e+16,252242547.6210763,9680180.534713209,-96.80220612023541,32.81527176010682
44,DRQ,"Dril-Quip, Inc.",Oil & Gas Equipment & Services,"Two BriarLake Plaza, Houston, TX, 77042, United States",687549425.4867554,1712432172.7249146,1060863506.1159353,1061801371.9007492,4.4164392890907096e+16,210153260.48126662,8064941.94022045,-95.4819822405857,29.7494516
45,DVN,Devon Energy Corporation,Oil & Gas E&P,"333 West Sheridan Avenue, Oklahoma City, OK, 73102-5015, United States",1868211530.3516388,51506400604.24805,19378091492.178726,16410398387.264648,2.1027310952276522e+20,14500796858.199387,556489509.0396852,-97.51850833455941,35.46656218372876
46,DWSN,Dawson Geophysical Company,Oil & Gas Equipment & Services,"508 West Wall, Midland, TX, 79701, United States",20260038.111042976,78886413.5370493,48398595.42717799,50008355.686855316,140611782260893.77,11857983.90372047,455067.6563026689,-102.080176,31.997725
47,E,Eni S.p.A.,Oil & Gas Integrated,"Piazzale Enrico Mattei 1, Rome, Italy",21373391276.980225,58319555092.20801,40801140810.93526,41470718309.69995,7.465754975815257e+19,8640460043.200974,331590423.225541,12.471661295432497,41.827183250000004
48,EC,Ecopetrol S.A.,Oil & Gas Integrated,"Carrera 13 No. 36 - 24, Bogotá, Colombia",12474070394.48584,42009930998.85205,26997448749.74694,26638529648.857178,2.9079964021950886e+19,5392584169.20412,206948386.77632585,-74.067643,4.624147
49,EGY,"VAALCO Energy, Inc.",Oil & Gas E&P,"9800 Richmond Avenue, Houston, TX, 77042, United States",41095194.84293461,506558082.469368,179859560.34230027,150258018.30472946,1.3663004460122218e+16,116888855.15789013,4485782.557683683,-95.543435,29.728254
50,ENB,Enbridge Inc.,Oil & Gas Midstream,"200, Fifth Avenue Place, Calgary, AB, T2P 3L8, Canada",41073556185.65625,96313840447.35156,71220989505.06209,73260640933.03711,1.813944770767973e+20,13468276692.910542,516865021.8150216,-114.066108,51.045748
51,ENLC,"EnLink Midstream, LLC",Oil & Gas Midstream,"1722 Routh Street, Dallas, TX, 75201, United States",370971093.87485504,5665730538.894653,2646349537.0482817,2294530117.496338,1.9510130752211766e+18,1396786696.3932526,53603753.677131705,-96.79503095918368,32.79093289795918
52,ENSV,Enservco Corporation,Oil & Gas Equipment & Services,"14133 County Road 9 1/2, Longmont, CO, 80504, United States",6436385.167115927,233573749.3927002,56075477.66174475,20507578.591024876,3339099442369695.5,57784941.31146709,2217582.5187236182,-104.9702808875503,40.20841521228144
53,EOG,"EOG Resources, Inc.",Oil & Gas E&P,"1111 Bagby Street, Houston, TX, 77002, United States",15808029675.419922,85473097302.42969,43573708388.70749,40907320713.14453,3.0755306301412816e+20,17537190852.988064,673015615.8415717,-95.37072936734694,29.759113897959182
54,EP,Empire Petroleum Corporation,Oil & Gas E&P,"2200 South Utica Place, Tulsa, OK, 74114, United States",6020211.617720127,1383165963.3636475,149135870.44278467,118917761.77201271,3.5471260723955344e+16,188338155.25260764,7227755.038213678,-95.9653429,36.063573
55,EPD,Enterprise Products Partners L.P.,Oil & Gas Midstream,"1100 Louisiana Street, Houston, TX, 77002, United States",23086038947.21045,62077411369.36377,45280635331.04698,46775510801.69678,7.784304863389064e+19,8822870770.553688,338590704.45840895,-95.368272,29.757716
56,EPM,Evolution Petroleum Corporation,Oil & Gas E&P,"1155 Dairy Ashford Road, Houston, TX, 77079, United States",66218712.64219284,265803838.5020733,144951190.85661286,138680893.76449585,3331217222443012.0,57716697.95165877,2214963.578939391,-95.60714573761521,29.78136165
57,EPSN,Epsilon Energy Ltd.,Oil & Gas E&P,"14505 Bannister Rd SE, Calgary, AB, T2X 3J3, Canada",66977500.0,184502254.09650803,108667369.41570899,95223626.68623924,994434320699898.1,31534652.696674783,1210188.8998594403,-114.070444,50.923866
58,EQNR,Equinor ASA,Oil & Gas Integrated,"Forusbeen 50, Stavanger, Norway",26577110373.916016,132943226911.10156,72161380728.76547,64313350238.17969,7.138532660562394e+20,26718032600.778065,1025343985.5690485,5.7191106,58.8928159
59,EQT,EQT Corporation,Oil & Gas E&P,"EQT Plaza, Pittsburgh, PA, 15222-3111, United States",1214424317.9574127,18608836415.345215,6981260220.032116,5594813990.428223,2.0107617429407568e+19,4484151807.132266,172085952.3798827,-80.000967,40.442567
60,ERF,Enerplus Corporation,Oil & Gas E&P,"The Dome Tower, Calgary, AB, T2P 2Z1, Canada",266432153.26727295,4337952884.470459,1667829061.9228623,1390064342.1411514,1.209612965055968e+18,1099824060.9551911,42207373.68408225,-114.06952858286249,51.04635435
61,ET,Energy Transfer LP,Oil & Gas Midstream,"8111 Westchester Drive, Dallas, TX, 75225, United States",9989188174.13562,38154949524.49292,23609840037.16759,24543193374.29077,5.391338915664819e+19,7342573741.995935,281782118.3710027,-96.80715415007114,32.861457
62,ETRN,Equitrans Midstream Corporation,Oil & Gas Midstream,"2200 Energy Drive, Canonsburg, PA, 15317, United States",896787246.9768524,4810915235.869141,3238746686.3057857,3345258060.0942993,7.329170427029193e+17,856105742.7110971,32854323.049010128,-80.170627,40.273594
63,EURN,Euronav NV,Oil & Gas Midstream,"Belgica Building, Antwerp, Belgium",1445308888.3886337,3567700904.065674,1960571385.0713851,1837131236.339569,1.565863491776839e+17,395709930.602814,15185953.375987915,4.386227968870493,51.2088801
64,FANG,"Diamondback Energy, Inc.",Oil & Gas E&P,"500 West Texas Avenue, Midland, TX, 79701, United States",2366314220.970154,28469874833.46875,14138805701.61275,13895510136.0,4.928838158988291e+19,7020568466.291239,269424690.0491398,-102.079463,31.998537
65,FET,"Forum Energy Technologies, Inc.",Oil & Gas Equipment & Services,"10344 Sam Houston Park Drive, Houston, TX, 77064, United States",47507181.752471924,3960423279.0985107,491856926.26162,128584490.07270813,4.908552147868825e+17,700610601.3948708,26886967.206755534,-95.55408135902395,29.915824840435214
66,FLNG,FLEX LNG Ltd.,Oil & Gas Midstream,"Par-La-Ville Place, Hamilton, HM08, Bermuda",151700375.45089722,1910045110.535431,734550226.940294,572170913.980484,2.4742579108372374e+17,497419130.1947722,19089194.21848989,-64.78818918633422,32.29466585
67,FRO,Frontline plc,Oil & Gas Midstream,"Iris House, Limassol, Cyprus",1069513689.8345947,2891872822.965637,1589715943.8764007,1522411943.722046,1.0085089123759811e+17,317570293.3802186,12187229.321043752,32.885224,34.664829
68,FTI,TechnipFMC plc,Oil & Gas Equipment & Services,"One Subsea Lane, Houston, TX, 77044, United States",1607982624.8426437,7046263320.15509,3302534058.5275636,3188094686.252594,7.509389316470003e+17,866567326.6671207,33255801.793688405,-95.17629,29.919474
69,FTK,"Flotek Industries, Inc.",Oil & Gas Equipment & Services,"5775 North Sam Houston Parkway West, Houston, TX, 77086, United States",244060444.12908554,1350103764.8788452,667391482.3045086,624025075.2768517,6.0164660077843544e+16,245284854.9703865,9413168.79700709,-95.4251335,29.9394539
70,GEL,"Genesis Energy, L.P.",Oil & Gas Midstream,"811 Louisiana, Houston, TX, 77002, United States",311870920.75014114,2290730899.580002,1083150181.3856742,1087217616.4512634,1.566496798611502e+17,395789944.1132256,15189024.012695743,-95.3664502,29.7598878
71,GEOS,Geospace Technologies Corporation,Oil & Gas Equipment & Services,"7007 Pinemont Drive, Houston, TX, 77040-6601, United States",53647342.50984192,215578170.01190186,104147103.99606168,102685245.01914978,1050050394703136.5,32404481.08986065,1243569.8499000627,-95.49480706122449,29.841339877551018
72,GLNG,Golar LNG Limited,Oil & Gas Midstream,"S.E. Pearman Building, Hamilton, HM 11, Bermuda",459759011.36398315,3227532057.571411,1410278099.7227476,1257283987.6174927,4.1537206590068934e+17,644493650.7838454,24733396.29615581,-64.7878619302714,32.2951713
73,GLP,Global Partners LP,Oil & Gas Midstream,"800 South Street, Waltham, MA, 02454-9161, United States",204457047.69353867,1020887891.342926,642890652.7545114,677472628.0490875,5.084055647627747e+16,225478505.57487175,8653070.868682126,-71.26239470606991,42.354717550000004
74,GPRK,GeoPark Limited,Oil & Gas E&P,"Calle 94 N° 11-30, Bogotá, Colombia",339764795.55625916,1276834212.3687744,765906088.8310817,761097243.7801361,3.770002186533827e+16,194164934.69557852,7451366.310284423,-74.046463,4.677486
75,GTE,Gran Tierra Energy Inc.,Oil & Gas E&P,"500 Centre Street South East, Calgary, AB, T2G 1A6, Canada",609578998.2516708,7737680832.0,2823730947.8127975,2588816278.826935,2.7102360078921155e+18,1646279444.0471263,63178406.57438681,-114.0616695,51.0479732
76,HAL,Halliburton Company,Oil & Gas Equipment & Services,"3000 North Sam Houston Parkway East, Houston, TX, 77032, United States",3972583117.143585,38757909821.04492,19530827289.815792,18849279917.48047,5.772842188894511e+19,7597922208.666334,291581493.1392313,-95.345444,29.938688
77,HES,Hess Corporation,Oil & Gas E&P,"1185 Avenue of the Americas, New York, NY, 10036, United States",8576397467.676086,40352136167.14014,22378261675.814518,21734889552.375,6.295981994176244e+19,7934722423.737483,304506699.1235786,-73.982208,40.757815
78,HESM,Hess Midstream LP,Oil & Gas Midstream,"1501 McKinney Street, Houston, TX, 77010, United States",258125207.7061653,9819200844.284912,2966517826.1339464,1023960284.9018097,8.943234385001247e+18,2990524098.7160172,114765781.75252594,-95.360437,29.754361
79,HLX,"Helix Energy Solutions Group, Inc.",Oil & Gas Equipment & Services,"3505 West Sam Houston Parkway North, Houston, TX, 77043, United States",149962000.0,1437498930.0429382,636708810.0338948,618663269.8554382,5.006328548666707e+16,223748263.65061936,8586670.2778482,-95.564173,29.8247451
80,HP,"Helmerich & Payne, Inc.",Oil & Gas Drilling,"1437 South Boulder Avenue, Tulsa, OK, 74119, United States",1255165437.057495,5670757884.262085,3057863014.7839746,2923799027.2789,1.1306003403224896e+18,1063296920.1133282,40805590.67363908,-95.98787655000001,36.141234749999995
81,HPK,"HighPeak Energy, Inc.",Oil & Gas E&P,"421 West 3rd Street, Fort Worth, TX, 76102, United States",381250299.038887,3912636447.4372864,1357185757.7014856,971280495.6653595,5.954691311994267e+17,771666463.7001058,29613840.930682834,-97.33408871428573,32.75379730612245
82,HUSA,Houston American Energy Corp.,Oil & Gas E&P,"801 Travis Street, Houston, TX, 77002, United States",6403733.7161672115,228393648.0,46721900.210332416,19945913.305363655,2379820419322254.5,48783403.11337714,1872135.187694735,-95.364619,29.758836
83,ICD,"Independence Contract Drilling, Inc.",Oil & Gas Drilling,"20475 State Highway 249, Houston, TX, 77070, United States",4612580.645418167,1487313698.3250122,94684892.5214806,26150622.640080452,6.470480987759771e+16,254371401.4538539,9761878.44661451,-95.57845,29.997183
84,IEP,Icahn Enterprises L.P.,Oil & Gas Refining & Marketing,"16690 Collins Avenue, Sunny Isles Beach, FL, 33160, United States",6410361451.652222,17716076643.00537,12859663108.34971,13673527965.71045,6.598789067711545e+18,2568810827.5448284,98581911.75390053,-80.122471,25.9293606
85,IMO,Imperial Oil Limited,Oil & Gas Integrated,"505 Quarry Park Boulevard S.E., Calgary, AB, T2C 5N1, Canada",5409311383.555481,38649756316.86401,19768111518.987648,18606368399.828247,6.669615369579693e+19,8166771314.038181,313411918.2159779,-114.0069743,50.9633787
86,INDO,Indonesia Energy Corporation Limited,Oil & Gas E&P,"DEA Tower I, Jakarta, Indonesia",11413641.648874283,458049540.0,52391577.40674835,38585471.91459656,1855580721454242.2,43076452.05276593,1653122.5068821425,106.82411840013651,-6.2285949
87,INSW,"International Seaways, Inc.",Oil & Gas Midstream,"600 Third Avenue, New York, NY, 10016, United States",307872534.5802307,1594230180.1757812,678145632.0061592,535791156.84928894,8.549190170035944e+16,292389982.21614814,11220897.668087956,-73.97589050171247,40.74932325
88,KLXE,"KLX Energy Services Holdings, Inc.",Oil & Gas Equipment & Services,"3040 Post Oak Boulevard, Houston, TX, 77056, United States",27752401.629123688,781812136.094284,112446391.8916779,67755893.67852211,1.502068172657713e+16,122558890.8507952,4703378.5567061845,-95.46282777276349,29.734934250000002
89,KMI,"Kinder Morgan, Inc.",Oil & Gas Midstream,"1001 Louisiana Street, Houston, TX, 77002, United States",19689022182.917725,45989890328.49609,35468209156.24839,36433271382.46875,3.1207222474505486e+19,5586342495.27412,214384148.87970853,-95.367514,29.758374
90,KNTK,Kinetik Holdings Inc.,Oil & Gas Midstream,"2700 Post Oak Boulevard, Houston, TX, 77056-4400, United States",77577039.04938698,1686426575.9151459,502291960.60120606,497955218.8024521,1.456484352556486e+17,381639142.71946555,14645966.096835144,-95.46078256796598,29.73933875852255
91,KOS,Kosmos Energy Ltd.,Oil & Gas E&P,"8176 Park Lane, Dallas, TX, 75231, United States",214701919.9300537,3830233645.065674,1509406431.3533084,1227610436.1104965,8.574177080529562e+17,925968524.3316622,35535410.538501546,-96.7651505965216,32.871684181466556
92,KRP,"Kimbell Royalty Partners, LP",Oil & Gas E&P,"777 Taylor Street, Fort Worth, TX, 76102, United States",172553643.31486225,1342341056.2705994,674328015.5817885,618689629.1761398,8.415193302936773e+16,290089525.88704014,11132614.256791927,-97.33231020408164,32.75175246938775
93,LBRT,Liberty Energy Inc.,Oil & Gas Equipment & Services,"950 17th Street, Denver, CO, 80202, United States",254383338.92655373,3501512887.154114,1770379351.2413623,1958792195.3242188,7.164676633371916e+17,846444128.8928593,32483544.340583343,-104.99325205871148,39.74773720270086
94,LNG,"Cheniere Energy, Inc.",Oil & Gas Midstream,"700 Milam Street, Houston, TX, 77002, United States",7531354919.784546,42882744983.97461,21450949451.211143,20584730898.146484,8.090656382189956e+19,8994807603.384275,345189034.5104315,-95.3655397271001,29.760404100000002
95,LPG,Dorian LPG Ltd.,Oil & Gas Midstream,"27 Signal Road, Stamford, CT, 06902, United States",297850267.2668457,760116908.8659286,494684573.38373744,486810281.11743927,9908012381618588.0,99538999.29986532,3819956.1991217276,-73.55142129981293,41.02782909557281
96,MARPS,Marine Petroleum Trust,Oil & Gas Midstream,"3838 Oak Lawn Avenue, Dallas, TX, 75219, United States",2078217.5064086914,30979999.542236328,8877181.240386352,8644886.97052002,25938464226742.332,5092981.8600445,195450.7054032421,-96.80220612023541,32.81527176010682
97,MGY,Magnolia Oil & Gas Corporation,Oil & Gas E&P,"Nine Greenway Plaza, Houston, TX, 77046, United States",842695845.3886185,8045540417.971802,3453254949.480166,3097370427.1888733,4.1291301440641244e+18,2032026117.9581635,77982005.25090122,-95.434652,29.732303
98,MMLP,Martin Midstream Partners L.P.,Oil & Gas Midstream,"4200 Stone Road, Kilgore, TX, 75662, United States",35244351.265859604,222924371.11091614,107485781.0636861,106319672.37005234,1530047082184147.8,39115816.26636657,1501127.2554617268,-94.830250572101,32.38174029924206
99,MPC,Marathon Petroleum Corporation,Oil & Gas Refining & Marketing,"539 South Main Street, Findlay, OH, 45840-3229, United States",9843839115.97998,61484083484.69287,34170465856.99761,35639769878.73242,1.2486091223019243e+20,11174117962.067183,428823290.159134,-83.65016264079452,41.03649696210927
100,MPLX,MPLX LP,Oil & Gas Midstream,"200 East Hardin Street, Findlay, OH, 45840-3229, United States",7001648209.572876,35552636689.56152,24407616830.619358,26619734169.63611,4.99744135434114e+19,7069258344.650548,271293236.0861841,-83.64837,41.035775
101,MRC,MRC Global Inc.,Oil & Gas Equipment & Services,"1301 McKinney Street, Houston, TX, 77010, United States",286559678.44724655,1095039923.811081,688551906.6863142,686122835.7671738,4.249100076412297e+16,206133453.77236313,7910675.917204803,-95.362156,29.755389
102,MRO,Marathon Oil Corporation,Oil & Gas E&P,"990 Town and Country Boulevard, Houston, TX, 77024-2217, United States",2425869799.027954,22766418431.539062,9894705196.851372,9121642077.817627,2.7805906432427418e+19,5273130610.218887,202364179.91909063,-95.56075351020408,29.78384663265306
103,MTDR,Matador Resources Company,Oil & Gas E&P,"One Lincoln Centre, Dallas, TX, 75240, United States",139202493.81506443,7862399711.608887,3281344378.8431444,3143447579.1511536,4.5055018574782024e+18,2122616747.6674168,81458554.54287976,-96.772448,32.864782
104,MTR,Mesa Royalty Trust,Oil & Gas E&P,"601 Travis Street, Houston, TX, 77002, United States",5784816.79571867,44726160.0,12400332.55840123,10241142.183041573,48944631092060.55,6996043.960129221,268483.5258823011,-95.363417,29.760353
105,MUR,Murphy Oil Corporation,Oil & Gas E&P,"9805 Katy Freeway, Houston, TX, 77024, United States",671897238.0749664,7041458992.5842285,3337305913.8794274,3168033253.935974,2.569794585386824e+18,1603057885.8502972,61519715.4047851,-95.53542195914255,29.783756208637936
106,MVO,MV Oil Trust,Oil & Gas E&P,"601 Travis Street, Houston, TX, 77002, United States",16289825.081825256,167669999.12261963,69995967.60343032,56490837.09716797,1623074367470750.0,40287397.12950875,1546088.402473563,-95.363417,29.760353
107,MXC,Mexco Energy Corporation,Oil & Gas E&P,"415 West Wall, Midland, TX, 79701, United States",8599316.861305237,8670722.5,8635019.680652618,8635019.680652618,2549382618.703531,50491.411336023586,35702.81934738159,-102.079036,31.997194
108,NBR,Nabors Industries Ltd.,Oil & Gas Drilling,"Crown House, Hamilton, HM 08, Bermuda",83671126.28105164,56695107774.6582,3636800937.1910458,766009290.3501892,1.0129912083424313e+20,10064746436.659153,386249518.41721475,-64.78842865890158,32.295408550000005
109,NCSM,"NCS Multistage Holdings, Inc.",Oil & Gas Equipment & Services,"19350 State Highway 249, Houston, TX, 77070, United States",44460893.160095215,1891755600.0,314195095.87681204,87220935.57361603,1.5551787362785053e+17,394357545.4176711,15134053.595922574,-95.57845,29.997183
110,NEXT,NextDecade Corporation,Oil & Gas E&P,"1000 Louisiana Street, Houston, TX, 77002, United States",141162834.8221779,1114472700.3631592,419431490.31738764,345485695.2762604,4.977283803422188e+16,223098269.9041431,8561725.807251683,-95.367669,29.758468
111,NFG,National Fuel Gas Company,Oil & Gas Integrated,"6363 Main Street, Williamsville, NY, 14221, United States",2651077022.2368164,6934309232.409668,4623304712.203527,4529823757.436523,1.2847813110248507e+18,1133481941.1992636,43499044.57882689,-78.7144949,42.962548
112,NGL,NGL Energy Partners LP,Oil & Gas Midstream,"6120 South Yale Avenue, Tulsa, OK, 74136, United States",170919299.03519154,1312521973.4573364,389930005.9852601,309729673.5949516,5.152332811958546e+16,226987506.52752995,8710981.010276183,-95.922255501084,36.07401665670526
113,NGS,"Natural Gas Services Group, Inc.",Oil & Gas Equipment & Services,"404 Veterans Airpark Lane, Midland, TX, 79705, United States",55228638.71536255,185907295.24040222,129415793.69685668,133449000.0,706812657871378.6,26585948.504264027,1020275.0631684499,-102.08746854932488,32.03586636438546
114,NINE,"Nine Energy Service, Inc.",Oil & Gas Equipment & Services,"2001 Kirby Drive, Houston, TX, 77019, United States",11604325.8543849,277155216.6618347,75513456.01400058,70999425.0,1406685126389100.2,37505801.23646341,1439340.549372489,-95.418725,29.748275
115,NOA,North American Construction Group Ltd.,Oil & Gas Equipment & Services,"27287 - 100 Avenue, Acheson, AB, T7X 6H8, Canada",275939432.37638474,304972626.8415451,292611789.06746507,293309678.45129967,48532583867203.28,6966533.131135119,1741633.2827837798,-113.7760958,53.5409075
116,NOG,"Northern Oil and Gas, Inc.",Oil & Gas E&P,"4350 Baker Road, Minnetonka, MN, 55343, United States",151263721.47130966,9032747101.707458,2076760472.3718038,1781662994.430481,2.6005666455551053e+18,1612627249.4147882,61886953.87339483,-93.44746,44.923899000000006
117,NOV,NOV Inc.,Oil & Gas Equipment & Services,"10353 Richmond Avenue, Houston, TX, 77042-4103, United States",3096738242.3591614,9658281369.293945,5791977414.126979,5504727011.356354,1.7760370667537198e+18,1332680406.8319304,51143580.077488184,-95.55476586075609,29.727540602593297
118,NR,"Newpark Resources, Inc.",Oil & Gas Equipment & Services,"9320 Lakeside Boulevard, The Woodlands, TX, 77381, United States",60231393.500328064,571847971.411705,262226103.80960673,279539919.3604946,9652835474526346.0,98248844.64728501,3770444.60770917,-95.476747,30.170789
119,NRT,North European Oil Royalty Trust,Oil & Gas E&P,"5 North Lincoln Street, Keene, NH, 03431, United States",18369209.43392515,188315186.9964409,69008756.11625686,51646026.764616966,2288561862206241.5,47838915.77164183,1835889.0901708377,-72.26767458252903,42.93652897729344
120,NS,NuStar Energy L.P.,Oil & Gas Midstream,"19003 IH-10 West, San Antonio, TX, 78257, United States",593471988.6889458,2435068319.7250366,1586830649.2923925,1654157512.7983093,1.203992715359067e+17,346985981.75705415,13316099.833675874,-98.604771,29.618571
121,NVGS,Navigator Holdings Ltd.,Oil & Gas Midstream,"The Verde, London, SW1E 5DH, United Kingdom",216607214.38884735,1201614650.4285583,626324303.7700882,611603958.5412025,3.957404098390564e+16,198932252.24660188,7634319.166554877,-0.1455303655465924,51.497615100000004
122,OBE,Obsidian Energy Ltd.,Oil & Gas E&P,"207 – 9th Avenue SW, Calgary, AB, T2P 1K3, Canada",57613917.88673401,62784401.76105499,60199159.8238945,60199159.8238945,13366951747306.666,3656084.2095480603,2585241.9371604915,-114.066621,51.044579
123,OII,"Oceaneering International, Inc.",Oil & Gas Equipment & Services,"5875 North Sam Houston Parkway West, Houston, TX, 77086, United States",205780848.77200317,1854689277.748108,1036675207.5937864,1104233533.1932068,1.5687735860849587e+17,396077465.41364336,15200058.067504762,-95.51105759183673,29.936424102040814
124,OIS,"Oil States International, Inc.",Oil & Gas Equipment & Services,"Three Allen Center, Houston, TX, 77002, United States",100871337.40782738,932396499.0829468,360812269.5478399,355354878.6587715,1.7017641452627212e+16,130451682.44460173,5006276.098264831,-95.37191430465808,29.7573566
125,OKE,"ONEOK, Inc.",Oil & Gas Midstream,"100 West Fifth Street, Tulsa, OK, 74103, United States",5279638928.807343,32878104266.601562,21015297147.31942,22916737423.49414,4.9249753059280036e+19,7017816829.989226,269319091.9396195,-95.991424,36.150869
126,OSG,"Overseas Shipholding Group, Inc.",Oil & Gas Midstream,"302 Knights Run Avenue, Tampa, FL, 33602, United States",144197200.0,293582117.27371216,189730972.03754103,184761411.61712265,606139826253848.8,24619907.113022354,944825.3193190194,-82.45318418367347,27.937258061224487
127,OVV,Ovintiv Inc.,Oil & Gas E&P,"370 17th Street, Denver, CO, 80202, United States",535174181.4880142,15996832563.62915,6868176437.5913725,6532716469.985962,1.686248987341941e+19,4106396214.86035,157589023.27067128,-104.9890147,39.7433855
128,OXY,Occidental Petroleum Corporation,Oil & Gas E&P,"5 Greenway Plaza, Houston, TX, 77046-0521, United States",8243751033.966736,70104087501.56152,29394662411.41098,25484226811.04883,2.6436394467365867e+20,16259272575.169489,623973613.3936868,-95.4317595136533,29.73065125
129,PAA,"Plains All American Pipeline, L.P.",Oil & Gas Midstream,"333 Clay Street, Houston, TX, 77002, United States",2030038365.7139435,11534811245.040894,6650389743.721474,6754321488.359619,2.493480493645976e+18,1579075835.3055675,60599368.773913175,-95.37258935545866,29.757600791780686
130,PAGP,"Plains GP Holdings, L.P.",Oil & Gas Midstream,"333 Clay Street, Houston, TX, 77002, United States",542778763.5476685,3106889775.8714294,1959499966.1509256,1919578382.4119568,3.506723228355187e+17,592175922.2017716,22725626.14549357,-95.37258935545866,29.757600791780686
131,PARR,"Par Pacific Holdings, Inc.",Oil & Gas Refining & Marketing,"825 Town & Country Lane, Houston, TX, 77024, United States",320253000.0,1221043260.8922958,791038295.3746146,863270192.9485321,5.256710331558059e+16,229275169.4265661,8798773.454786794,-98.441357,36.407534
132,PBA,Pembina Pipeline Corporation,Oil & Gas Midstream,"585 - 8th Avenue South West, Calgary, AB, T2P 1G1, Canada",15665484967.315186,15794024966.837097,15729754967.076141,15729754967.076141,8261265738546520.0,90891505.31565928,64269999.7609558,-114.073391,51.045703
133,PBF,PBF Energy Inc.,Oil & Gas Refining & Marketing,"One Sylvan Way, Parsippany, NJ, 07054, United States",513031957.70835876,5285016922.805786,1948291980.6304681,1684937675.0144958,1.1767293675260316e+18,1084771573.892878,41629712.24815939,-74.401647,40.853731
134,PBR,Petróleo Brasileiro S.A. - Petrobras,Oil & Gas Integrated,"Avenida Henrique Valadares, 28, Rio de Janeiro, Brazil",21673860618.468018,110369744215.46875,61980195875.687904,59251734412.90625,4.185203865631403e+20,20457770811.18909,785097187.8367983,-43.186034849300064,-22.91022885
135,PBT,Permian Basin Royalty Trust,Oil & Gas Midstream,"3838 Oak Lawn Avenue, Dallas, TX, 75219, United States",96399603.51085663,1010944896.8917847,327695433.94432884,194452310.446167,6.082629133944122e+16,246629867.0871823,9464785.62467852,-96.80220612023541,32.81527176010682
136,PDS,Precision Drilling Corporation,Oil & Gas Drilling,"525–8th Avenue SW, Calgary, AB, T2P 1G1, Canada",8248934464.0,8704048198.107544,8476491331.053772,8476491331.053772,1.0356425548665611e+17,321814007.59857565,227556867.05377197,-114.0726467,51.0455678
137,PED,PEDEVCO Corp.,Oil & Gas E&P,"Energy Center II, Houston, TX, 77079, United States",51210215.15491104,209418933.04170227,99597080.85790561,100949354.23270798,629687698694160.4,25093578.83392005,963003.1716112734,-95.615406557924,29.7859911
138,PFIE,"Profire Energy, Inc.",Oil & Gas Equipment & Services,"321 South 1250 West, Lindon, UT, 84042, United States",31191429.19664383,72976111.08427048,51339008.76195281,53291766.68679714,102652517785734.9,10131757.882309215,388821.18167506903,-111.74332773469388,40.331653836734695
139,PHX,PHX Minerals Inc.,Oil & Gas E&P,"1320 South University Drive, Fort Worth, TX, 76101, United States",26866903.758859634,175680375.80509186,80485072.55953747,80273590.53735733,925816404569999.9,30427231.299774874,1167689.9671809645,-97.36160940816326,32.732673204081635
140,PNRG,PrimeEnergy Resources Corporation,Oil & Gas E&P,"9821 Katy Freeway, Houston, TX, 77024, United States",73025619.8960495,285065264.8498535,138646732.48753607,135963193.00857544,2022408635246336.8,44971197.84091076,1725836.176600474,-95.53550979571278,29.78375704318967
141,PR,Permian Resources Corporation,Oil & Gas E&P,"300 N. Marienfeld Street, Midland, TX, 79701, United States",74105926.17595196,2871229588.4399414,1318225036.87841,1392111319.9424744,7.233985205294781e+17,850528377.2629095,32640283.40757883,-102.079251,31.999625
142,PRT,PermRock Royalty Trust,Oil & Gas E&P,"3838 Oak Lawn Avenue, Dallas, TX, 75219, United States",12508066.830158234,140067005.4244995,64612700.84775461,68269604.03709412,1073683573534127.4,32767111.15637336,1257486.3146054205,-96.80220612023541,32.81527176010682
143,PSX,Phillips 66,Oil & Gas Refining & Marketing,"2331 CityWest Boulevard, Houston, TX, 77042, United States",16749628127.484375,53041275000.0,32983449907.80137,32920009786.87207,5.054070969349338e+19,7109198948.791163,272826015.79521024,-95.56232787984564,29.74116495088581
144,PTEN,"Patterson-UTI Energy, Inc.",Oil & Gas Drilling,"10713 West Sam Houston Parkway North, Houston, TX, 77064, United States",320424916.8167114,4284962472.961731,1695817855.2319918,1485153636.5966797,1.0241027908638428e+18,1011979639.5500469,38836214.19418274,-95.5648209,29.857323
145,PUMP,ProPetro Holding Corp.,Oil & Gas Equipment & Services,"303 West Wall Street, Midland, TX, 79701, United States",151931669.0404415,1683148332.5271606,883992803.3027145,909720643.3296204,9.937717801917238e+16,315241459.8671507,12097856.893376816,-102.07698816326531,31.99737455102041
146,PVL,Permianville Royalty Trust,Oil & Gas E&P,"601 Travis Street, Houston, TX, 77002, United States",14260440.76681137,187439994.33517456,59286086.15729224,53477466.70246124,1039946453330330.2,32248200.776637606,1237572.3619255398,-95.363417,29.760353
147,PXD,Pioneer Natural Resources Company,Oil & Gas E&P,"777 Hidden Ridge, Irving, TX, 75038, United States",8661113124.400635,69026065506.87988,33685329599.996193,33651540507.8125,2.943060016528614e+20,17155349068.231209,658361873.0570824,-96.95463776257557,32.8776589989824
148,PXS,Pyxis Tankers Inc.,Oil & Gas Midstream,"59 K. Karamanli Street, Maroussi, Greece",24730619.190216064,263903990.37590027,91483052.9862238,86336011.18478775,1351273667231830.8,36759674.47124404,1410706.8321141482,23.8,38.05
149,RCON,"Recon Technology, Ltd.",Oil & Gas Equipment & Services,"No. 1 Shui'an South Street, Beijing, China",5117022.365945578,242248718.03398132,41253463.599881954,23998496.274715662,2091422544019988.0,45732073.4716893,1755035.9033708535,116.417592,39.937967
150,REI,"Ring Energy, Inc.",Oil & Gas E&P,"1725 Hughes Landing Boulevard, The Woodlands, TX, 77380, United States",32851053.34572172,510030802.3867607,207800118.13288638,223158600.0,1.6302476427845632e+16,127681151.41964233,4899952.875828471,-95.46633042814581,30.172826593596458
151,REPX,"Riley Exploration Permian, Inc.",Oil & Gas E&P,"29 East Reno Avenue, Oklahoma City, OK, 73104, United States",4486324.352371216,935375480.7720184,284571946.0109683,385723999.2965698,6.442811934902629e+16,253826947.64155024,9740984.22696116,-97.51188098545987,35.46435868423691
152,RES,"RPC, Inc.",Oil & Gas Equipment & Services,"2801 Buford Highway NE, Atlanta, GA, 30329, United States",420286728.17993164,2716999741.2929535,1113680306.0910735,1001146172.214508,2.5557700609926506e+17,505546245.26275045,19401084.269658443,-84.3425392,33.83044
153,RIG,Transocean Ltd.,Oil & Gas Drilling,"Turmstrasse 30, Steinhausen, Switzerland",431214669.30130005,4240201757.758789,1983110524.3742435,2177489433.175415,6.292381597569092e+17,793245333.9017565,30441961.96441468,8.480063,47.18868285
154,RNGR,"Ranger Energy Services, Inc.",Oil & Gas Equipment & Services,"10350 Richmond, Houston, TX, 77042, United States",35295339.268255234,292174735.23693085,135822622.65794617,114306564.3863678,6350708569694469.0,79691333.09020793,3058272.676995117,-95.555028,29.728546
155,RRC,Range Resources Corporation,Oil & Gas E&P,"100 Throckmorton Street, Fort Worth, TX, 76102, United States",494147130.09490967,9987884767.343262,3885907687.734995,2875288526.4136963,6.507687185881174e+18,2551016892.5119205,97899043.20073216,-97.334896,32.756915
156,SBOW,"SilverBow Resources, Inc.",Oil & Gas E&P,"920 Memorial City Way, Houston, TX, 77024, United States",19024844.794988632,1058889582.2296143,266560545.85939935,162492073.38981628,6.606235152782545e+16,257025974.4224802,9863751.607273638,-95.53597007017544,29.783292390977444
157,SBR,Sabine Royalty Trust,Oil & Gas E&P,"3838 Oak Lawn Ave, Dallas, TX, 75219, United States",296468105.60569763,1273356008.6090088,569230924.2259395,485186888.671875,5.4193930750448264e+16,232795899.341995,8933886.66830585,-96.80220612023541,32.81527176010682
158,SD,"SandRidge Energy, Inc.",Oil & Gas E&P,"1 East Sheridan Ave, Oklahoma City, OK, 73104, United States",28188493.15650463,1041552218.4158325,288812273.16183287,190431976.31077766,5.902221573209989e+16,242944882.08665743,9323368.879529016,-97.512275,35.466548
159,SDPI,"Superior Drilling Products, Inc.",Oil & Gas Equipment & Services,"1583 South 1700 East, Vernal, UT, 84078, United States",6862887.272706628,48433123.87715578,21479866.60247423,21641927.324306965,53951924406345.58,7345197.370142315,281882.80397837766,-109.4954517755102,40.433406020408164
160,SGU,"Star Group, L.P.",Oil & Gas Refining & Marketing,"9 West Broad Street, Stamford, CT, 06902, United States",390434166.9559479,392079965.1527405,391257066.0543442,391257066.0543442,1354325852282.891,1163755.0654166413,822899.0983963013,-73.545828,41.055704
161,SHEL,Shell plc,Oil & Gas Integrated,"Shell Centre, London, SE1 7NA, United Kingdom",165393656749.76074,466345826672.9883,276063686514.8147,279991089254.98047,4.1590504550376245e+21,64490700531.45356,2474925938.713575,-0.11677336321045279,51.5038502
162,SJT,San Juan Basin Royalty Trust,Oil & Gas E&P,"3838 Oak Lawn Avenue, Dallas, TX, 75219, United States",62884515.65322876,706123302.2201538,234354044.75391757,193793944.96650696,2.4488589587089116e+16,156488304.95308304,6005469.964538715,-96.80220612023541,32.81527176010682
163,SLB,Schlumberger Limited,Oil & Gas Equipment & Services,"5599 San Felipe, Houston, TX, 77056, United States",16073448370.97168,70065210182.40625,39731099025.741035,40124003987.50879,1.5880285377980003e+20,12601700432.076618,483608877.15947914,-95.47335,29.74965
164,SLCA,"U.S. Silica Holdings, Inc.",Oil & Gas Equipment & Services,"24275 Katy Freeway, Katy, TX, 77494, United States",62687923.35834885,1583372236.7343903,670227107.4736564,712154974.2233276,1.3098372313405693e+17,361916735.084269,13889089.557613436,-95.78772820481927,29.78496221686747
165,SLNG,"Stabilis Solutions, Inc.",Oil & Gas Integrated,"11750 Katy Freeway, Houston, TX, 77079, United States",15544872.281992435,178663089.9635315,77540775.90952899,76072593.37434769,1328992907541544.8,36455354.99129785,1399028.1223409874,-95.59188590914113,29.785325456429934
166,SM,SM Energy Company,Oil & Gas E&P,"1700 Lincoin Street, Denver, CO, 80203, United States",114793589.24245834,6624527114.379883,2316935612.229433,2074996382.4748993,3.219582712843811e+18,1794319568.2051208,68859665.11600094,-104.9856925,39.7434964
167,SMLP,"Summit Midstream Partners, LP",Oil & Gas Midstream,"910 Louisiana Street, Houston, TX, 77002, United States",41751390.98404884,4869736037.435547,636095332.5289111,199664992.45033264,9.545663346417802e+17,977019106.5899276,37494552.07637008,-95.36712457142858,29.75915489795918
168,SND,"Smart Sand, Inc.",Oil & Gas Equipment & Services,"28420 Hardy Toll Road, Spring, TX, 77373, United States",25708801.021575928,208347904.27303314,92754480.88310498,90134065.43195248,1372851666782533.8,37052012.992313035,1421925.7548846642,-95.43113877635483,30.1055092
169,SOI,"Solaris Oilfield Infrastructure, Inc.",Oil & Gas Equipment & Services,"9651 Katy Freeway, Houston, TX, 77024, United States",191623403.65781784,664414800.0,386609467.7284058,377491344.71588135,1.34646634981693e+16,116037336.65579067,4453104.276772273,-95.53109773493976,29.783733192771084
170,STNG,Scorpio Tankers Inc.,Oil & Gas Midstream,"99 Boulevard du Jardin Exotique, Monaco, Monaco",498396245.9321022,2635866971.960449,1117502117.4912353,962462124.8750687,2.5386708588788186e+17,503852246.08795965,19336074.547895446,7.4119231436451205,43.7314659
171,STR,Sitio Royalties Corp.,Oil & Gas E&P,"1401 Lawrence Street, Denver, CO, 80202, United States",83869326.65195465,2519415976.034546,304647616.99604636,218154493.3921814,1.789015444876337e+17,422967545.4306556,16232004.626927374,-104.9996451,39.746419
172,SU,Suncor Energy Inc.,Oil & Gas Integrated,"6th Avenue S.W, Calgary, AB, T2P 3E3, Canada",45686379761.53711,47203690713.270996,46445035237.40405,46445035237.40405,1.1511162621257966e+18,1072900863.1396456,758655475.8669432,-114.07824215460192,51.0481487
173,SUN,Sunoco LP,Oil & Gas Refining & Marketing,"8111 Westchester Drive, Dallas, TX, 75225, United States",807439999.1409302,4033090435.265625,2811398369.5729833,3093156966.8406982,5.7196585374285274e+17,756284241.3688473,29023525.416523956,-96.80715415007114,32.861457
174,SWN,Southwestern Energy Company,Oil & Gas E&P,"10000 Energy Drive, Spring, TX, 77389, United States",681733054.680069,11018617255.141357,3796531437.907512,3106424856.548584,6.369538935833952e+18,2523794551.034999,96854345.61676197,-95.438175,30.097461
175,TALO,Talos Energy Inc.,Oil & Gas E&P,"333 Clay Street, Houston, TX, 77002, United States",334552568.5221672,2075913562.9129944,966082308.4193649,914616405.927063,1.4054959444446352e+17,374899445.7777492,14387320.266619874,-95.37258935545866,29.757600791780686
176,TDW,Tidewater Inc.,Oil & Gas Equipment & Services,"842 West Sam Houston Parkway North, Houston, TX, 77024, United States",663562014.1925812,800550301.8535614,716120395.1501051,696027454.8315048,1817792657005146.5,42635579.70762385,12307831.710626187,-95.56246206760774,29.781031568164963
177,TELL,Tellurian Inc.,Oil & Gas E&P,"1201 Louisiana Street, Houston, TX, 77002, United States",168567683.89754105,3602565403.824707,1257107013.5081828,1293313501.240738,6.676877893302305e+17,817121649.0402335,31358250.84281343,-95.368697,29.756884
178,TGS,Transportadora de Gas del Sur S.A.,Oil & Gas Integrated,"Don Bosco 3672, Buenos Aires, Argentina",1031254525.5509033,1137716873.0339355,1082764317.1133575,1087663714.306137,1280100202273295.8,35778487.9819326,10328359.83378329,-58.41745324285714,-34.61246177142857
179,TK,Teekay Corporation,Oil & Gas Midstream,"Belvedere Building, Hamilton, HM 08, Bermuda",433355978.24811935,488697981.2383652,465873304.373463,464778973.7868309,264326383298432.0,16258117.458624538,4693314.245626716,-64.79029027983717,32.291485050000006
180,TNK,Teekay Tankers Ltd.,Oil & Gas Midstream,"Belvedere Building, Hamilton, HM 08, Bermuda",315095012.8555298,931003148.4912872,498806888.05204535,466778014.18304443,1.665139764773216e+16,129040294.66694564,4952112.006516428,-64.79029027983717,32.291485050000006
181,TNP,Tsakos Energy Navigation Limited,Oil & Gas Midstream,"367 Syngrou Avenue, Athens, Greece",129372140.4294014,2002561623.1521606,396078693.7518541,176346575.35266876,1.941860444369779e+17,440665456.3690895,16911188.113563698,23.7348324,37.9755648
182,TOPS,Top Ships Inc.,Oil & Gas Midstream,"1 Vasilisis Sofias & Megalou Alexandrou Str., Maroussi, Greece",44571501000.0,50339577600.0,47805119700.0,47717724600.0,3.7911775574449633e+18,1947094645.2201452,562077808.7777649,-9.067775,39.147643
183,TPL,Texas Pacific Land Corporation,Oil & Gas E&P,"1700 Pacific Avenue, Dallas, TX, 75201, United States",742931092.5048828,4997700949.916992,2735035986.733842,3112842410.369873,1.3672732692841539e+18,1169304609.2802994,44873792.405987516,-96.797393,32.782524
184,TRGP,Targa Resources Corp.,Oil & Gas Midstream,"811 Louisiana Street, Houston, TX, 77002, United States",1062759422.0352173,18405168228.085938,9203348071.637709,8766670277.859375,2.1007141637587583e+19,4583354845.262101,175893015.5726136,-95.36639693877551,29.759807795918366
185,TRMD,TORM plc,Oil & Gas Midstream,"Office 105, London, EC3R 8HL, United Kingdom",371698126.0246277,1760992363.925171,692637674.9537442,634434563.254425,6.797168594084609e+16,260713800.82543787,10005277.39544059,-0.1277653,51.5074456
186,TRP,TC Energy Corporation,Oil & Gas Midstream,"450 - 1 Street SW, Calgary, AB, T2P 5H1, Canada",43201248735.055664,44973815601.38965,43879354397.67505,43634077181.46167,2.972866999673098e+17,545240038.851981,157397241.60207665,-114.06458628905753,51.0488663
187,TS,Tenaris S.A.,Oil & Gas Equipment & Services,"26, Boulevard Royal, Luxembourg City, Luxembourg",5044549604.121826,20650661614.310547,11763144853.820475,12165424499.791016,1.44726239779913e+19,3804290206.857424,145995258.75445244,6.1257865,49.6109863
188,TTE,TotalEnergies SE,Oil & Gas Integrated,"Tour Coupole - 2, Courbevoie, France",58088365525.63623,132575662151.78613,102836095603.42018,103034167656.04102,2.6146316854131782e+20,16169822773.96131,847529001.3212194,2.2418950110347877,48.892491750000005
189,TTI,"TETRA Technologies, Inc.",Oil & Gas Equipment & Services,"24955 Interstate 45 North, The Woodlands, TX, 77380, United States",178547047.09482193,251701726.45258904,210474722.5492696,199625511.77370548,674803535931362.8,25976980.885610297,7498908.453520435,-95.450309,30.1642671
190,UGP,Ultrapar Participações S.A.,Oil & Gas Refining & Marketing,"Brigadeiro Luis Antônio Avenue, 1343, São Paulo, Brazil",2122069985.645996,6797868237.257629,3619516945.1332355,3479143122.305786,8.381033619919973e+17,915479853.4058504,35132892.2913279,-46.63494,-23.547955
191,USAC,"USA Compression Partners, LP",Oil & Gas Equipment & Services,"111 Congress Avenue, Austin, TX, 78701, United States",262055647.7458191,1945600407.4241638,1276612341.5290978,1346986386.747879,1.377575468227761e+17,371157037.95398533,14243699.835767819,-97.74440263265306,30.26354393877551
192,USEG,U.S. Energy Corp.,Oil & Gas E&P,"1616 South Voss Road, Houston, TX, 77057, United States",3416195.28011322,200051244.39144135,35272902.28717792,18099566.752529144,1648254919018744.8,40598705.878620625,1558035.335779857,-95.50119367346939,29.75020269387755
193,VET,Vermilion Energy Inc.,Oil & Gas E&P,"520 3rd Avenue SW, Calgary, AB, T2P 0R3, Canada",267018862.04004288,4887089541.595459,1683364880.1189883,1236019334.8898315,1.3139759212868564e+18,1146287887.6123817,43990491.69734816,-114.07235,51.050917
194,VIST,"Vista Energy, S.A.B. de C.V.",Oil & Gas E&P,"Pedregal 24, Mexico City, Mexico",184363072.91760254,1407611838.3750916,456714372.5532612,388971448.4307289,5.901753669576565e+16,242935252.0647542,9322999.313207014,-99.2033586,19.4252122
195,VIVK,"Vivakor, Inc.",Oil & Gas E&P,"5220 Spring Valley Road, Dallas, TX, 75254, United States",2757957.702767372,5038245120.0,1323163811.8962288,28733984.038496017,2.7991193876868823e+18,1673056899.1181629,64206030.98506785,-96.82091737370371,32.93940421707837
196,VLO,Valero Energy Corporation,Oil & Gas Refining & Marketing,"One Valero Way, San Antonio, TX, 78249, United States",11853745627.027466,62523965427.83496,29692956859.654396,28249126510.453857,1.0274603989159467e+20,10136372126.73226,388998260.1238386,-98.6070202,29.5841364
197,VNOM,"Viper Energy, Inc.",Oil & Gas Midstream,"500 West Texas, Midland, TX, 79701, United States",3492406268.7663574,3905518767.84906,3717396072.7155304,3723866116.3475647,2.005861496780476e+16,141628439.82691032,40884608.92948669,-102.0795931,31.9999827
198,VOC,VOC Energy Trust,Oil & Gas E&P,"601 Travis Street, Houston, TX, 77002, United States",62887219.54579353,69298712.67023087,65820130.584319435,65479097.69575596,3100936629928.792,1760947.6511040276,508341.8001968748,-95.363417,29.760353
199,VTNR,"Vertex Energy, Inc.",Oil & Gas Refining & Marketing,"1331 Gemini Street, Houston, TX, 77058, United States",18495248.267805576,1345429728.0,278953382.8053484,102967575.49345493,8.63987334713282e+16,293936614.7170648,11280251.975959197,-95.11287039546153,29.558473577018365
200,VTOL,Bristow Group Inc.,Oil & Gas Equipment & Services,"3151 Briarpark Drive, Houston, TX, 77042, United States",81345017.42839813,1117117704.975891,680893811.0023241,779908500.0,8.34093293662416e+16,288806733.58881646,11083385.20660806,-95.54895213043478,29.73161052173913
201,VVV,Valvoline Inc.,Oil & Gas Refining & Marketing,"100 Valvoline Way, Lexington, KY, 40509, United States",1659440692.7490234,6702789861.297607,4777968885.286908,5099946105.461121,1.2379852452007168e+18,1112647853.1865852,42699505.66225282,-84.377851,37.997348
202,WDS,Woodside Energy Group Ltd,Oil & Gas E&P,"Mia Yellagonga, Perth, Australia",16726407552.100586,48939520277.299805,33170193693.378464,32689920213.19922,4.234851464866564e+19,6507573637.5907135,263268249.65121016,115.85026436451935,-31.954384949999998
203,WES,"Western Midstream Partners, LP",Oil & Gas Midstream,"9950 Woodloch Forest Drive, The Woodlands, TX, 77380, United States",1130548129.3135986,11890286607.04834,7027024495.437101,7698549873.331055,8.008594034047237e+18,2829945941.894869,108603357.6784744,-95.455075,30.160542
204,WHD,"Cactus, Inc.",Oil & Gas Equipment & Services,"920 Memorial City Way, Houston, TX, 77024, United States",617619635.9397888,4251889365.463257,2307758216.632991,2312630132.5342407,5.015323356124161e+17,708189477.1968983,27177817.765892785,-95.53597007017544,29.783292390977444
205,WMB,"The Williams Companies, Inc.",Oil & Gas Midstream,"One Williams Center, Tulsa, OK, 74172, United States",9941617463.710693,48624417207.6416,29487913031.28749,28815710604.8584,6.5305421730149065e+19,8081177001.535671,310127109.9804789,-95.894002,36.148487
206,WTI,"W&T Offshore, Inc.",Oil & Gas E&P,"5718 Westheimer Road, Houston, TX, 77057-5745, United States",711044015.2416229,837964671.7472076,770538091.6047096,760081557.2490692,1779918119893262.5,42189075.83597041,12178937.145379527,-95.47834227020884,29.73805515613459
207,XOM,Exxon Mobil Corporation,Oil & Gas Integrated,"22777 Springwoods Village Parkway, Spring, TX, 77389-1425, United States",116493957045.35156,440658559183.28125,243957236011.51776,234049163977.2705,6.782864948708624e+21,82358150469.2075,3160615734.9973974,-95.4461518,30.1032424
208,XPRO,Expro Group Holdings N.V.,Oil & Gas Equipment & Services,"1311 Broadfield Boulevard, Houston, TX, 77084, United States",1008148655.0273895,3541613120.109558,1872768547.4380877,1832997516.757965,2.3673896361329706e+17,486558283.8810753,22885776.566591892,-95.65991425,29.788715096153844
209,YPF,YPF Sociedad Anónima,Oil & Gas Integrated,"Macacha GUeemes 515, Buenos Aires, Argentina",866561759.8740692,5522301383.059967,2018843886.6959488,1781707936.2803497,5.22585545144737e+17,722900785.1321902,27742385.948613945,-58.454595,-34.607357
